{
    "Branches": [
        {
            "Id": "SASB0124",
            "Code": null,
            "Latitude": -33.9248695,
            "Longitude": 18.4240551,
            "Name": "Cape Town Airport Domestic Departures",
            "AddressLine1": "Cape Town Airport Domestic Departures, Airport Approach Road, W Cape",
            "AddressLine2": null,
            "OpeningHours": null,
            "SaturdayHours": null,
            "SundayHours": null,
            "PublicHolidayHours": null,
            "City": "Cape town",
            "Province": "W Cape",
            "IsAtm": true,
            "CashAccepting": false,
            "HandlesHomeLoans": false,
            "IsClosed": false,
            "BusinessBankCenter": false
        },
        {
            "Id": "SASM4137",
            "Code": null,
            "Latitude": -33.6968918,
            "Longitude": 18.5955448,
            "Name": "Cape Town Airport Ground Floor North Side",
            "AddressLine1": "Cape Town Airport Ground Floor North Side, Airport Approach Road, W Cape",
            "AddressLine2": null,
            "OpeningHours": null,
            "SaturdayHours": null,
            "SundayHours": null,
            "PublicHolidayHours": null,
            "City": "Cape Town",
            "Province": "W Cape",
            "IsAtm": true,
            "CashAccepting": false,
            "HandlesHomeLoans": false,
            "IsClosed": false,
            "BusinessBankCenter": false
        },
        {
            "Id": "SASM4001",
            "Code": null,
            "Latitude": -33.9189873,
            "Longitude": 18.4201241,
            "Name": "Radisson Blu Cape Town",
            "AddressLine1": "Radisson Blu Cape Town, 22 Riebeeck Street, W Cape",
            "AddressLine2": null,
            "OpeningHours": null,
            "SaturdayHours": null,
            "SundayHours": null,
            "PublicHolidayHours": null,
            "City": "Cape Town",
            "Province": "W Cape",
            "IsAtm": true,
            "CashAccepting": false,
            "HandlesHomeLoans": false,
            "IsClosed": false,
            "BusinessBankCenter": false
        },
        {
            "Id": "SASB0123",
            "Code": null,
            "Latitude": -33.9714622,
            "Longitude": 18.6020851,
            "Name": "Cape Town Airport 3rd Floor North Side",
            "AddressLine1": "Cape Town Airport 3rd Floor North Side, Airport Approach Road, W Cape",
            "AddressLine2": null,
            "OpeningHours": null,
            "SaturdayHours": null,
            "SundayHours": null,
            "PublicHolidayHours": null,
            "City": "Cape town",
            "Province": "W Cape",
            "IsAtm": true,
            "CashAccepting": false,
            "HandlesHomeLoans": false,
            "IsClosed": false,
            "BusinessBankCenter": false
        },
        {
            "Id": "SASM4243",
            "Code": null,
            "Latitude": -33.9156837,
            "Longitude": 18.4265079,
            "Name": "CTICC Cape Town 3",
            "AddressLine1": "CTICC Cape Town 3, 1 Lower Long St, W Cape",
            "AddressLine2": null,
            "OpeningHours": null,
            "SaturdayHours": null,
            "SundayHours": null,
            "PublicHolidayHours": null,
            "City": "Cape Town",
            "Province": "W Cape",
            "IsAtm": true,
            "CashAccepting": false,
            "HandlesHomeLoans": false,
            "IsClosed": false,
            "BusinessBankCenter": false
        },
        {
            "Id": "SASM4201",
            "Code": null,
            "Latitude": -33.9156837,
            "Longitude": 18.4265079,
            "Name": "CTICC Cape Town 1",
            "AddressLine1": "CTICC Cape Town 1, 1 Lower Long Street, W Cape",
            "AddressLine2": null,
            "OpeningHours": null,
            "SaturdayHours": null,
            "SundayHours": null,
            "PublicHolidayHours": null,
            "City": "Cape Town",
            "Province": "W Cape",
            "IsAtm": true,
            "CashAccepting": false,
            "HandlesHomeLoans": false,
            "IsClosed": false,
            "BusinessBankCenter": false
        },
        {
            "Id": "SASB0204",
            "Code": null,
            "Latitude": -34.0499001,
            "Longitude": 18.6226006,
            "Name": "Shoprite Town Centre 2581",
            "AddressLine1": "Shoprite Town Centre 2581, Symphony Walk Town Centre, W Cape",
            "AddressLine2": null,
            "OpeningHours": null,
            "SaturdayHours": null,
            "SundayHours": null,
            "PublicHolidayHours": null,
            "City": "Cape Town",
            "Province": "W Cape",
            "IsAtm": true,
            "CashAccepting": false,
            "HandlesHomeLoans": false,
            "IsClosed": false,
            "BusinessBankCenter": false
        },
        {
            "Id": "SAS27816",
            "Code": null,
            "Latitude": -34.0391884,
            "Longitude": 18.6754608,
            "Name": "Food Town Hyper Khayelitsha 2",
            "AddressLine1": "Food Town Hyper Khayelitsha 2, Cnr of Spine and  Govan Mbeki roads, W Cape",
            "AddressLine2": null,
            "OpeningHours": null,
            "SaturdayHours": null,
            "SundayHours": null,
            "PublicHolidayHours": null,
            "City": "Cape Town",
            "Province": "W Cape",
            "IsAtm": true,
            "CashAccepting": false,
            "HandlesHomeLoans": false,
            "IsClosed": false,
            "BusinessBankCenter": false
        },
        {
            "Id": "SAS30465",
            "Code": null,
            "Latitude": -33.9682732,
            "Longitude": 18.5322189,
            "Name": "Elite Food Town",
            "AddressLine1": "Elite Food Town, Klipfontein Road, W Cape",
            "AddressLine2": null,
            "OpeningHours": null,
            "SaturdayHours": null,
            "SundayHours": null,
            "PublicHolidayHours": null,
            "City": "Cape Town",
            "Province": "W Cape",
            "IsAtm": true,
            "CashAccepting": false,
            "HandlesHomeLoans": false,
            "IsClosed": false,
            "BusinessBankCenter": false
        },
        {
            "Id": "SAS28686",
            "Code": null,
            "Latitude": -34.0391884,
            "Longitude": 18.6754608,
            "Name": "Food Town Hyper Khayelitsha 3",
            "AddressLine1": "Food Town Hyper Khayelitsha 3, Cnr of Spine and  Govan Mbeki roads, W Cape",
            "AddressLine2": null,
            "OpeningHours": null,
            "SaturdayHours": null,
            "SundayHours": null,
            "PublicHolidayHours": null,
            "City": "Cape Town",
            "Province": "W Cape",
            "IsAtm": true,
            "CashAccepting": false,
            "HandlesHomeLoans": false,
            "IsClosed": false,
            "BusinessBankCenter": false
        },
        {
            "Id": "SAS26692",
            "Code": null,
            "Latitude": -34.0378304,
            "Longitude": 18.6798687,
            "Name": "Food Town Hyper Khayelitsha 1",
            "AddressLine1": "Food Town Hyper Khayelitsha 1, 1 Landsdowne Road, W Cape",
            "AddressLine2": null,
            "OpeningHours": null,
            "SaturdayHours": null,
            "SundayHours": null,
            "PublicHolidayHours": null,
            "City": "Cape Town",
            "Province": "W Cape",
            "IsAtm": true,
            "CashAccepting": false,
            "HandlesHomeLoans": false,
            "IsClosed": false,
            "BusinessBankCenter": false
        },
        {
            "Id": "SASB1780",
            "Code": null,
            "Latitude": -33.9156837,
            "Longitude": 18.4265079,
            "Name": "CTICC Cape Town 3 R",
            "AddressLine1": "CTICC Cape Town 3 R, 1 Lower Long Street, W Cape",
            "AddressLine2": null,
            "OpeningHours": null,
            "SaturdayHours": null,
            "SundayHours": null,
            "PublicHolidayHours": null,
            "City": "Cape Town",
            "Province": "W Cape",
            "IsAtm": true,
            "CashAccepting": false,
            "HandlesHomeLoans": false,
            "IsClosed": false,
            "BusinessBankCenter": false
        },
        {
            "Id": "SASB1721",
            "Code": null,
            "Latitude": -32.8807945,
            "Longitude": 27.3883018,
            "Name": "Browns & Weirs King Williams Town",
            "AddressLine1": "Browns & Weirs King Williams Town, 108 Buffalo Road , E Cape",
            "AddressLine2": null,
            "OpeningHours": null,
            "SaturdayHours": null,
            "SundayHours": null,
            "PublicHolidayHours": null,
            "City": "King Williams Town",
            "Province": "E Cape",
            "IsAtm": true,
            "CashAccepting": false,
            "HandlesHomeLoans": false,
            "IsClosed": false,
            "BusinessBankCenter": false
        },
        {
            "Id": "SAS27631",
            "Code": null,
            "Latitude": -33.5648804,
            "Longitude": 18.4934998,
            "Name": "Town & Country Sports Bar",
            "AddressLine1": "Town & Country Sports Bar, 1 Darling Road, W Cape",
            "AddressLine2": null,
            "OpeningHours": null,
            "SaturdayHours": null,
            "SundayHours": null,
            "PublicHolidayHours": null,
            "City": "Atlantis",
            "Province": "W Cape",
            "IsAtm": true,
            "CashAccepting": false,
            "HandlesHomeLoans": false,
            "IsClosed": false,
            "BusinessBankCenter": false
        },
        {
            "Id": "SAS28244",
            "Code": null,
            "Latitude": -33.0175095,
            "Longitude": 27.9020996,
            "Name": "Fruit & Veg Town",
            "AddressLine1": "Fruit & Veg Town, 9 Union Street, E Cape",
            "AddressLine2": null,
            "OpeningHours": null,
            "SaturdayHours": null,
            "SundayHours": null,
            "PublicHolidayHours": null,
            "City": "East London",
            "Province": "E Cape",
            "IsAtm": true,
            "CashAccepting": false,
            "HandlesHomeLoans": false,
            "IsClosed": false,
            "BusinessBankCenter": false
        },
        {
            "Id": null,
            "Code": "470010",
            "Latitude": -33.924496,
            "Longitude": 18.420516,
            "Name": "Cape Town Adderley",
            "AddressLine1": "Cnr Church & Adderley Streets, Constitution House Shopping Centre, Cape Town, 8001",
            "AddressLine2": null,
            "OpeningHours": "Monday - Friday, 8am - 5pm",
            "SaturdayHours": "Saturday, 8am - 1pm",
            "SundayHours": "Closed on Sundays",
            "PublicHolidayHours": "Closed on Public Holidays",
            "City": "Cape Town",
            "Province": "Western Cape",
            "IsAtm": false,
            "CashAccepting": false,
            "HandlesHomeLoans": true,
            "IsClosed": false,
            "BusinessBankCenter": false
        },
        {
            "Id": null,
            "Code": "470010",
            "Latitude": -33.92395763,
            "Longitude": 18.42234568,
            "Name": "Cape Town Darling",
            "AddressLine1": "c/o Darling & Parliament Streets, Mutual Heights, Cape Town, 8001",
            "AddressLine2": null,
            "OpeningHours": "Monday - Friday, 8am - 5pm",
            "SaturdayHours": "Saturday, 8am - 1pm",
            "SundayHours": "Closed on Sundays",
            "PublicHolidayHours": "Closed on Public Holidays",
            "City": "Cape Town",
            "Province": "Western Cape",
            "IsAtm": false,
            "CashAccepting": false,
            "HandlesHomeLoans": true,
            "IsClosed": false,
            "BusinessBankCenter": false
        },
        {
            "Id": "SASB0237",
            "Code": null,
            "Latitude": -32.8778496,
            "Longitude": 27.3851795,
            "Name": "Meat n Chicken King Williams Town",
            "AddressLine1": "Meat n Chicken King Williams Town, 20 Wellington St , E Cape",
            "AddressLine2": null,
            "OpeningHours": null,
            "SaturdayHours": null,
            "SundayHours": null,
            "PublicHolidayHours": null,
            "City": "King Williams Town",
            "Province": "E Cape",
            "IsAtm": true,
            "CashAccepting": false,
            "HandlesHomeLoans": false,
            "IsClosed": false,
            "BusinessBankCenter": false
        },
        {
            "Id": null,
            "Code": "470010",
            "Latitude": -33.9171493545086,
            "Longitude": 18.4261001890741,
            "Name": "Cape Town Business Centre",
            "AddressLine1": "Ground Floor, Roggebaai Place, 4 Jetty Street, Foreshore, Cape Town, 8001",
            "AddressLine2": "4 Jetty Street, Foreshore",
            "OpeningHours": "Monday - Friday, 8:30am - 5pm",
            "SaturdayHours": "Saturday, 8:30am - 12pm",
            "SundayHours": "Closed on Sundays",
            "PublicHolidayHours": "Closed on Public Holidays",
            "City": "Cape Town",
            "Province": "Western Cape",
            "IsAtm": false,
            "CashAccepting": false,
            "HandlesHomeLoans": false,
            "IsClosed": false,
            "BusinessBankCenter": true
        },
        {
            "Id": null,
            "Code": "470010",
            "Latitude": -33.922346,
            "Longitude": 18.422914,
            "Name": "Cape Town Golden Acre",
            "AddressLine1": "Shop S41, Golden Acre, Cnr Lower Plein & Strand Streets, Cape Town, 8001",
            "AddressLine2": "Rooikoppies",
            "OpeningHours": "Monday - Friday, 8am - 5pm",
            "SaturdayHours": "Saturday, 8am - 1pm",
            "SundayHours": "Closed on Sundays",
            "PublicHolidayHours": "Closed on Public Holidays",
            "City": "Cape Town",
            "Province": "Western Cape",
            "IsAtm": false,
            "CashAccepting": false,
            "HandlesHomeLoans": true,
            "IsClosed": false,
            "BusinessBankCenter": false
        },
        {
            "Id": "4462",
            "Code": "4462",
            "Latitude": -33.934251,
            "Longitude": 18.418576,
            "Name": "Cape Town Gardens Centre",
            "AddressLine1": "Shop 39A, Cnr Buitenkant & Mill Streets, Gardens Shopping Centre, Cape Town, 8001",
            "AddressLine2": null,
            "OpeningHours": "Monday - Friday, 9am - 6pm",
            "SaturdayHours": "Saturday, 8am - 1pm",
            "SundayHours": "Closed on Sundays",
            "PublicHolidayHours": "Closed on Public Holidays",
            "City": "Cape Town",
            "Province": "Western Cape",
            "IsAtm": false,
            "CashAccepting": false,
            "HandlesHomeLoans": false,
            "IsClosed": false,
            "BusinessBankCenter": false
        },
        {
            "Id": "SAS29667",
            "Code": null,
            "Latitude": -34.0495186,
            "Longitude": 18.6212692,
            "Name": "Mother of Plain Supermarket",
            "AddressLine1": "Mother of Plain Supermarket,  Town Centre, W Cape",
            "AddressLine2": null,
            "OpeningHours": null,
            "SaturdayHours": null,
            "SundayHours": null,
            "PublicHolidayHours": null,
            "City": "Cape Town",
            "Province": "W Cape",
            "IsAtm": true,
            "CashAccepting": false,
            "HandlesHomeLoans": false,
            "IsClosed": false,
            "BusinessBankCenter": false
        },
        {
            "Id": null,
            "Code": "470010",
            "Latitude": -33.923429,
            "Longitude": 18.423029,
            "Name": "Cape Town Parliament",
            "AddressLine1": "Shop 20 & 21, Cnr Plein & Darling Streets, Grand Central, Cape Town, 8001",
            "AddressLine2": null,
            "OpeningHours": "Monday - Friday, 8am - 5pm",
            "SaturdayHours": "Saturday, 8am - 1pm",
            "SundayHours": "Closed on Sundays",
            "PublicHolidayHours": "Closed on Public Holidays",
            "City": "Cape Town",
            "Province": "Western Cape",
            "IsAtm": false,
            "CashAccepting": false,
            "HandlesHomeLoans": true,
            "IsClosed": false,
            "BusinessBankCenter": false
        },
        {
            "Id": null,
            "Code": "470010",
            "Latitude": -33.92088983,
            "Longitude": 18.4243950617,
            "Name": "Cape Town Riebeeck",
            "AddressLine1": "c/o Riebeeck & Adderley Streets, Cape Town, 8001",
            "AddressLine2": null,
            "OpeningHours": "Monday - Friday, 8am - 5pm",
            "SaturdayHours": "Saturday, 8am - 1pm",
            "SundayHours": "Closed on Sundays",
            "PublicHolidayHours": "Closed on Public Holidays",
            "City": "Cape Town",
            "Province": "Western Cape",
            "IsAtm": false,
            "CashAccepting": false,
            "HandlesHomeLoans": true,
            "IsClosed": false,
            "BusinessBankCenter": false
        },
        {
            "Id": "SAS27007",
            "Code": null,
            "Latitude": -32.8872185,
            "Longitude": 27.3899994,
            "Name": "Pick n Pay King Williams Town 1",
            "AddressLine1": "Pick n Pay King Williams Town 1, Stone Towers Mall King William's Town , E Cape",
            "AddressLine2": null,
            "OpeningHours": null,
            "SaturdayHours": null,
            "SundayHours": null,
            "PublicHolidayHours": null,
            "City": "King Williams Town",
            "Province": "E Cape",
            "IsAtm": true,
            "CashAccepting": false,
            "HandlesHomeLoans": false,
            "IsClosed": false,
            "BusinessBankCenter": false
        },
        {
            "Id": "SASB1679",
            "Code": null,
            "Latitude": -33.915432,
            "Longitude": 18.4183407,
            "Name": "Cape Quarter Lifestyle Village R",
            "AddressLine1": "Cape Quarter Lifestyle Village R, 27 Somerset Road, W Cape",
            "AddressLine2": null,
            "OpeningHours": null,
            "SaturdayHours": null,
            "SundayHours": null,
            "PublicHolidayHours": null,
            "City": "Cape Town",
            "Province": "W Cape",
            "IsAtm": true,
            "CashAccepting": false,
            "HandlesHomeLoans": false,
            "IsClosed": false,
            "BusinessBankCenter": false
        },
        {
            "Id": "SASB1779",
            "Code": null,
            "Latitude": -33.9156837,
            "Longitude": 18.4265079,
            "Name": "CTICC Cape Town1 R",
            "AddressLine1": "CTICC Cape Town1 R, 1 Lower Long Street, W Cape",
            "AddressLine2": null,
            "OpeningHours": null,
            "SaturdayHours": null,
            "SundayHours": null,
            "PublicHolidayHours": null,
            "City": "Cape Town",
            "Province": "W Cape",
            "IsAtm": true,
            "CashAccepting": false,
            "HandlesHomeLoans": false,
            "IsClosed": false,
            "BusinessBankCenter": false
        },
        {
            "Id": null,
            "Code": "470010",
            "Latitude": -32.879263,
            "Longitude": 27.38765,
            "Name": "King Williams Town Walker",
            "AddressLine1": "Shop 19, Walker Street, King Williams Town, 5600",
            "AddressLine2": null,
            "OpeningHours": "Monday - Friday, 8am - 5pm",
            "SaturdayHours": "Saturday, 8am - 1pm",
            "SundayHours": "Closed on Sundays",
            "PublicHolidayHours": "Closed on Public Holidays",
            "City": "Qonce",
            "Province": "Eastern Cape",
            "IsAtm": false,
            "CashAccepting": false,
            "HandlesHomeLoans": true,
            "IsClosed": false,
            "BusinessBankCenter": false
        },
        {
            "Id": null,
            "Code": "470010",
            "Latitude": -32.877181,
            "Longitude": 27.388616,
            "Name": "King Williams Town Maclean",
            "AddressLine1": "29 Maclean Street, King Williams Town, 5600",
            "AddressLine2": null,
            "OpeningHours": "Monday - Friday, 8am - 5pm",
            "SaturdayHours": "Saturday, 8am - 1pm",
            "SundayHours": "Closed on Sundays",
            "PublicHolidayHours": "Closed on Public Holidays",
            "City": "Qonce",
            "Province": "Eastern Cape",
            "IsAtm": false,
            "CashAccepting": false,
            "HandlesHomeLoans": true,
            "IsClosed": false,
            "BusinessBankCenter": false
        },
        {
            "Id": null,
            "Code": "470010",
            "Latitude": -32.874325,
            "Longitude": 27.386663,
            "Name": "King Williams Town Metlife",
            "AddressLine1": "Shop 44 & 45, Metlife Mall, Cross Street, King Williams Town, 5601",
            "AddressLine2": null,
            "OpeningHours": "Monday - Friday, 9am - 6pm",
            "SaturdayHours": "Saturday, 9am - 2pm",
            "SundayHours": "Closed on Sundays",
            "PublicHolidayHours": "Closed on Public Holidays",
            "City": "Qonce",
            "Province": "Eastern Cape",
            "IsAtm": false,
            "CashAccepting": false,
            "HandlesHomeLoans": true,
            "IsClosed": false,
            "BusinessBankCenter": false
        },
        {
            "Id": null,
            "Code": "470010",
            "Latitude": -32.878515,
            "Longitude": 27.38941,
            "Name": "King Williams Town Taylor",
            "AddressLine1": "Allied Building, Cnr Maclear and Taylor Streets, King Williams Town, 5600",
            "AddressLine2": null,
            "OpeningHours": "Monday - Friday, 8am - 5pm",
            "SaturdayHours": "Saturday, 8am - 1pm",
            "SundayHours": "Closed on Sundays",
            "PublicHolidayHours": "Closed on Public Holidays",
            "City": "Qonce",
            "Province": "Eastern Cape",
            "IsAtm": false,
            "CashAccepting": false,
            "HandlesHomeLoans": true,
            "IsClosed": false,
            "BusinessBankCenter": false
        },
        {
            "Id": "SASB0696",
            "Code": null,
            "Latitude": -33.9051666,
            "Longitude": 18.6278152,
            "Name": "Bellville Station Shopping Centre",
            "AddressLine1": "Bellville Station Shopping Centre, 1 Durban street, W Cape",
            "AddressLine2": null,
            "OpeningHours": null,
            "SaturdayHours": null,
            "SundayHours": null,
            "PublicHolidayHours": null,
            "City": "Cape Town",
            "Province": "W Cape",
            "IsAtm": true,
            "CashAccepting": false,
            "HandlesHomeLoans": false,
            "IsClosed": false,
            "BusinessBankCenter": false
        },
        {
            "Id": "SAS27676",
            "Code": null,
            "Latitude": -33.9208794,
            "Longitude": 18.4241295,
            "Name": "Checkin Riebeeck Wes",
            "AddressLine1": "Checkin Riebeeck Wes, 18 Riebeek Street , W Cape",
            "AddressLine2": null,
            "OpeningHours": null,
            "SaturdayHours": null,
            "SundayHours": null,
            "PublicHolidayHours": null,
            "City": "Cape Town",
            "Province": "W Cape",
            "IsAtm": true,
            "CashAccepting": false,
            "HandlesHomeLoans": false,
            "IsClosed": false,
            "BusinessBankCenter": false
        },
        {
            "Id": "SAS30081",
            "Code": null,
            "Latitude": -33.8696556,
            "Longitude": 18.6922474,
            "Name": "Caltex Motor City 2",
            "AddressLine1": "Caltex Motor City 2, Old Paarl Road, W Cape",
            "AddressLine2": null,
            "OpeningHours": null,
            "SaturdayHours": null,
            "SundayHours": null,
            "PublicHolidayHours": null,
            "City": "Cape Town",
            "Province": "W Cape",
            "IsAtm": true,
            "CashAccepting": false,
            "HandlesHomeLoans": false,
            "IsClosed": false,
            "BusinessBankCenter": false
        },
        {
            "Id": "SASM6066",
            "Code": null,
            "Latitude": -33.8427429,
            "Longitude": 18.5504074,
            "Name": "Bossa Cafe",
            "AddressLine1": "Bossa Cafe, 22 Viridian Street Burgurndy Estate, W Cape",
            "AddressLine2": null,
            "OpeningHours": null,
            "SaturdayHours": null,
            "SundayHours": null,
            "PublicHolidayHours": null,
            "City": "Cape Town",
            "Province": "W Cape",
            "IsAtm": true,
            "CashAccepting": false,
            "HandlesHomeLoans": false,
            "IsClosed": false,
            "BusinessBankCenter": false
        },
        {
            "Id": "SASM6010",
            "Code": null,
            "Latitude": -33.9291039,
            "Longitude": 18.4256763,
            "Name": "Castle Hotel 2R",
            "AddressLine1": "Castle Hotel 2R, 48 Roeland Street, W Cape",
            "AddressLine2": null,
            "OpeningHours": null,
            "SaturdayHours": null,
            "SundayHours": null,
            "PublicHolidayHours": null,
            "City": "Cape Town",
            "Province": "W Cape",
            "IsAtm": true,
            "CashAccepting": false,
            "HandlesHomeLoans": false,
            "IsClosed": false,
            "BusinessBankCenter": false
        },
        {
            "Id": "SASB0270",
            "Code": null,
            "Latitude": -34.0311089,
            "Longitude": 18.6727962,
            "Name": "Chillers",
            "AddressLine1": "Chillers, H163 Madayasi Cresent, W Cape",
            "AddressLine2": null,
            "OpeningHours": null,
            "SaturdayHours": null,
            "SundayHours": null,
            "PublicHolidayHours": null,
            "City": "Cape Town",
            "Province": "W Cape",
            "IsAtm": true,
            "CashAccepting": false,
            "HandlesHomeLoans": false,
            "IsClosed": false,
            "BusinessBankCenter": false
        },
        {
            "Id": "SASB1009",
            "Code": null,
            "Latitude": -33.9967384,
            "Longitude": 18.6983414,
            "Name": "BP Malibu",
            "AddressLine1": "BP Malibu, 1 London Way, W Cape",
            "AddressLine2": null,
            "OpeningHours": null,
            "SaturdayHours": null,
            "SundayHours": null,
            "PublicHolidayHours": null,
            "City": "Cape Town",
            "Province": "W Cape",
            "IsAtm": true,
            "CashAccepting": false,
            "HandlesHomeLoans": false,
            "IsClosed": false,
            "BusinessBankCenter": false
        },
        {
            "Id": "SAS11006",
            "Code": null,
            "Latitude": -33.9014893,
            "Longitude": 18.6311092,
            "Name": "Link Pharmacy -City-Kem",
            "AddressLine1": "Link Pharmacy -City-Kem,  CNR 169 Kort Street and Voortrekker Road, W Cape",
            "AddressLine2": null,
            "OpeningHours": null,
            "SaturdayHours": null,
            "SundayHours": null,
            "PublicHolidayHours": null,
            "City": "Cape Town",
            "Province": "W Cape",
            "IsAtm": true,
            "CashAccepting": false,
            "HandlesHomeLoans": false,
            "IsClosed": false,
            "BusinessBankCenter": false
        },
        {
            "Id": "SASB1163",
            "Code": null,
            "Latitude": -33.9336281,
            "Longitude": 18.4588184,
            "Name": "Hipsta Lifestyle Centre",
            "AddressLine1": "Hipsta Lifestyle Centre, 265 Victoria Road, W Cape",
            "AddressLine2": null,
            "OpeningHours": null,
            "SaturdayHours": null,
            "SundayHours": null,
            "PublicHolidayHours": null,
            "City": "Cape Town",
            "Province": "W Cape",
            "IsAtm": true,
            "CashAccepting": false,
            "HandlesHomeLoans": false,
            "IsClosed": false,
            "BusinessBankCenter": false
        }
    ]
}
